{
"type": "FeatureCollection",
"name": "GrapeAcreData-zinfandel-v12",
"crs": { "type": "name", "properties": { "name": "urn:ogc:def:crs:OGC:1.3:CRS84" } },
"features": [
{ "type": "Feature", "properties": { "State": "CA", "FIPS": 6001, "County": "Alameda", "squarekm": 1914.046, "squaremi": 739.017, "Latitude": 37.648, "Longitude": -121.913, "1971": 156, "1981": 35, "1991": 56, "2001": 151, "2011": 142, "2019": 134, "Grape": "zinfandel" }, "geometry": { "type": "Point", "coordinates": [ -121.913, 37.648 ] } },
{ "type": "Feature", "properties": { "State": "CA", "FIPS": 6003, "County": "Alpine", "squarekm": 1912.272, "squaremi": 738.332, "Latitude": 38.618, "Longitude": -119.799, "1971": 0, "1981": 0, "1991": 0, "2001": 0, "2011": 0, "2019": 0, "Grape": "zinfandel" }, "geometry": { "type": "Point", "coordinates": [ -119.799, 38.618 ] } },
{ "type": "Feature", "properties": { "State": "CA", "FIPS": 6005, "County": "Amador", "squarekm": 1539.963, "squaremi": 594.583, "Latitude": 38.444, "Longitude": -120.654, "1971": 385, "1981": 1097, "1991": 1165, "2001": 1708, "2011": 2037, "2019": 1944, "Grape": "zinfandel" }, "geometry": { "type": "Point", "coordinates": [ -120.654, 38.444 ] } },
{ "type": "Feature", "properties": { "State": "CA", "FIPS": 6007, "County": "Butte", "squarekm": 4238.423, "squaremi": 1636.464, "Latitude": 39.666, "Longitude": -121.602, "1971": 2, "1981": 85, "1991": 0, "2001": 65, "2011": 42, "2019": 23, "Grape": "zinfandel" }, "geometry": { "type": "Point", "coordinates": [ -121.602, 39.666 ] } },
{ "type": "Feature", "properties": { "State": "CA", "FIPS": 6009, "County": "Calaveras", "squarekm": 2641.82, "squaremi": 1020.012, "Latitude": 38.188, "Longitude": -120.555, "1971": 48, "1981": 38, "1991": 39, "2001": 58, "2011": 67, "2019": 78, "Grape": "zinfandel" }, "geometry": { "type": "Point", "coordinates": [ -120.555, 38.188 ] } },
{ "type": "Feature", "properties": { "State": "CA", "FIPS": 6011, "County": "Colusa", "squarekm": 2980.379, "squaremi": 1150.731, "Latitude": 39.178, "Longitude": -122.238, "1971": 0, "1981": 0, "1991": 1054, "2001": 1141, "2011": 808, "2019": 395, "Grape": "zinfandel" }, "geometry": { "type": "Point", "coordinates": [ -122.238, 39.178 ] } },
{ "type": "Feature", "properties": { "State": "CA", "FIPS": 6013, "County": "Contra Costa", "squarekm": 1854.269, "squaremi": 715.937, "Latitude": 37.919, "Longitude": -121.952, "1971": 507, "1981": 361, "1991": 298, "2001": 427, "2011": 389, "2019": 401, "Grape": "zinfandel" }, "geometry": { "type": "Point", "coordinates": [ -121.952, 37.919 ] } },
{ "type": "Feature", "properties": { "State": "CA", "FIPS": 6015, "County": "Del Norte", "squarekm": 2606.494, "squaremi": 1006.373, "Latitude": 41.75, "Longitude": -123.981, "1971": 0, "1981": 0, "1991": 0, "2001": 0, "2011": 0, "2019": 0, "Grape": "zinfandel" }, "geometry": { "type": "Point", "coordinates": [ -123.981, 41.75 ] } },
{ "type": "Feature", "properties": { "State": "CA", "FIPS": 6017, "County": "El Dorado", "squarekm": 4423.397, "squaremi": 1707.883, "Latitude": 38.786, "Longitude": -120.534, "1971": 6, "1981": 128, "1991": 143, "2001": 317, "2011": 368, "2019": 418, "Grape": "zinfandel" }, "geometry": { "type": "Point", "coordinates": [ -120.534, 38.786 ] } },
{ "type": "Feature", "properties": { "State": "CA", "FIPS": 6019, "County": "Fresno", "squarekm": 15431.126, "squaremi": 5957.991, "Latitude": 36.761, "Longitude": -119.655, "1971": 200, "1981": 182, "1991": 530, "2001": 2637, "2011": 2753, "2019": 3005, "Grape": "zinfandel" }, "geometry": { "type": "Point", "coordinates": [ -119.655, 36.761 ] } },
{ "type": "Feature", "properties": { "State": "CA", "FIPS": 6021, "County": "Glenn", "squarekm": 3403.107, "squaremi": 1313.947, "Latitude": 39.603, "Longitude": -122.402, "1971": 14, "1981": 9, "1991": 300, "2001": 368, "2011": 200, "2019": 0, "Grape": "zinfandel" }, "geometry": { "type": "Point", "coordinates": [ -122.402, 39.603 ] } },
{ "type": "Feature", "properties": { "State": "CA", "FIPS": 6023, "County": "Humboldt", "squarekm": 9241.045, "squaremi": 3567.987, "Latitude": 40.707, "Longitude": -123.926, "1971": 0, "1981": 0, "1991": 0, "2001": 0, "2011": 5, "2019": 1, "Grape": "zinfandel" }, "geometry": { "type": "Point", "coordinates": [ -123.926, 40.707 ] } },
{ "type": "Feature", "properties": { "State": "CA", "FIPS": 6025, "County": "Imperial", "squarekm": 10817.353, "squaremi": 4176.603, "Latitude": 33.041, "Longitude": -115.355, "1971": 0, "1981": 0, "1991": 0, "2001": 0, "2011": 0, "2019": 0, "Grape": "zinfandel" }, "geometry": { "type": "Point", "coordinates": [ -115.355, 33.041 ] } },
{ "type": "Feature", "properties": { "State": "CA", "FIPS": 6027, "County": "Inyo", "squarekm": 26368.354, "squaremi": 10180.879, "Latitude": 36.562, "Longitude": -117.404, "1971": 0, "1981": 0, "1991": 0, "2001": 0, "2011": 0, "2019": 0, "Grape": "zinfandel" }, "geometry": { "type": "Point", "coordinates": [ -117.404, 36.562 ] } },
{ "type": "Feature", "properties": { "State": "CA", "FIPS": 6029, "County": "Kern", "squarekm": 21061.565, "squaremi": 8131.916, "Latitude": 35.347, "Longitude": -118.73, "1971": 34, "1981": 66, "1991": 1132, "2001": 2012, "2011": 862, "2019": 1161, "Grape": "zinfandel" }, "geometry": { "type": "Point", "coordinates": [ -118.73, 35.347 ] } },
{ "type": "Feature", "properties": { "State": "CA", "FIPS": 6031, "County": "Kings", "squarekm": 3598.582, "squaremi": 1389.42, "Latitude": 36.072, "Longitude": -119.816, "1971": 0, "1981": 0, "1991": 145, "2001": 251, "2011": 251, "2019": 64, "Grape": "zinfandel" }, "geometry": { "type": "Point", "coordinates": [ -119.816, 36.072 ] } },
{ "type": "Feature", "properties": { "State": "CA", "FIPS": 6033, "County": "Lake", "squarekm": 3254.228, "squaremi": 1256.464, "Latitude": 39.095, "Longitude": -122.747, "1971": 158, "1981": 321, "1991": 374, "2001": 609, "2011": 603, "2019": 386, "Grape": "zinfandel" }, "geometry": { "type": "Point", "coordinates": [ -122.747, 39.095 ] } },
{ "type": "Feature", "properties": { "State": "CA", "FIPS": 6035, "County": "Lassen", "squarekm": 11761.612, "squaremi": 4541.184, "Latitude": 40.721, "Longitude": -120.63, "1971": 0, "1981": 0, "1991": 0, "2001": 0, "2011": 0, "2019": 0, "Grape": "zinfandel" }, "geometry": { "type": "Point", "coordinates": [ -120.63, 40.721 ] } },
{ "type": "Feature", "properties": { "State": "CA", "FIPS": 6037, "County": "Los Angeles", "squarekm": 10509.87, "squaremi": 4057.884, "Latitude": 34.196, "Longitude": -118.262, "1971": 19, "1981": 0, "1991": 2, "2001": 3, "2011": 8, "2019": 19, "Grape": "zinfandel" }, "geometry": { "type": "Point", "coordinates": [ -118.262, 34.196 ] } },
{ "type": "Feature", "properties": { "State": "CA", "FIPS": 6039, "County": "Madera", "squarekm": 5534.983, "squaremi": 2137.069, "Latitude": 37.21, "Longitude": -119.75, "1971": 98, "1981": 76, "1991": 934, "2001": 3104, "2011": 2909, "2019": 2018, "Grape": "zinfandel" }, "geometry": { "type": "Point", "coordinates": [ -119.75, 37.21 ] } },
{ "type": "Feature", "properties": { "State": "CA", "FIPS": 6041, "County": "Marin", "squarekm": 1347.586, "squaremi": 520.306, "Latitude": 38.052, "Longitude": -122.746, "1971": 0, "1981": 0, "1991": 0, "2001": 0, "2011": 0, "2019": 0, "Grape": "zinfandel" }, "geometry": { "type": "Point", "coordinates": [ -122.746, 38.052 ] } },
{ "type": "Feature", "properties": { "State": "CA", "FIPS": 6043, "County": "Mariposa", "squarekm": 3752.417, "squaremi": 1448.816, "Latitude": 37.57, "Longitude": -119.913, "1971": 0, "1981": 0, "1991": 12, "2001": 9, "2011": 12, "2019": 8, "Grape": "zinfandel" }, "geometry": { "type": "Point", "coordinates": [ -119.913, 37.57 ] } },
{ "type": "Feature", "properties": { "State": "CA", "FIPS": 6045, "County": "Mendocino", "squarekm": 9081.386, "squaremi": 3506.343, "Latitude": 39.432, "Longitude": -123.443, "1971": 728, "1981": 1341, "1991": 1846, "2001": 1898, "2011": 1952, "2019": 1820, "Grape": "zinfandel" }, "geometry": { "type": "Point", "coordinates": [ -123.443, 39.432 ] } },
{ "type": "Feature", "properties": { "State": "CA", "FIPS": 6047, "County": "Merced", "squarekm": 5011.555, "squaremi": 1934.972, "Latitude": 37.195, "Longitude": -120.723, "1971": 425, "1981": 102, "1991": 642, "2001": 1237, "2011": 1442, "2019": 885, "Grape": "zinfandel" }, "geometry": { "type": "Point", "coordinates": [ -120.723, 37.195 ] } },
{ "type": "Feature", "properties": { "State": "CA", "FIPS": 6049, "County": "Modoc", "squarekm": 10146.977, "squaremi": 3917.77, "Latitude": 41.593, "Longitude": -120.718, "1971": 0, "1981": 0, "1991": 0, "2001": 0, "2011": 0, "2019": 0, "Grape": "zinfandel" }, "geometry": { "type": "Point", "coordinates": [ -120.718, 41.593 ] } },
{ "type": "Feature", "properties": { "State": "CA", "FIPS": 6051, "County": "Mono", "squarekm": 7896.827, "squaremi": 3048.982, "Latitude": 37.916, "Longitude": -118.875, "1971": 0, "1981": 0, "1991": 0, "2001": 0, "2011": 0, "2019": 0, "Grape": "zinfandel" }, "geometry": { "type": "Point", "coordinates": [ -118.875, 37.916 ] } },
{ "type": "Feature", "properties": { "State": "CA", "FIPS": 6053, "County": "Monterey", "squarekm": 8496.703, "squaremi": 3280.595, "Latitude": 36.24, "Longitude": -121.316, "1971": 475, "1981": 2343, "1991": 1783, "2001": 298, "2011": 84, "2019": 149, "Grape": "zinfandel" }, "geometry": { "type": "Point", "coordinates": [ -121.316, 36.24 ] } },
{ "type": "Feature", "properties": { "State": "CA", "FIPS": 6055, "County": "Napa", "squarekm": 1938.247, "squaremi": 748.362, "Latitude": 38.507, "Longitude": -122.326, "1971": 783, "1981": 2135, "1991": 2179, "2001": 1749, "2011": 1471, "2019": 1386, "Grape": "zinfandel" }, "geometry": { "type": "Point", "coordinates": [ -122.326, 38.507 ] } },
{ "type": "Feature", "properties": { "State": "CA", "FIPS": 6057, "County": "Nevada", "squarekm": 2480.617, "squaremi": 957.772, "Latitude": 39.295, "Longitude": -120.773, "1971": 0, "1981": 4, "1991": 2, "2001": 13, "2011": 29, "2019": 33, "Grape": "zinfandel" }, "geometry": { "type": "Point", "coordinates": [ -120.773, 39.295 ] } },
{ "type": "Feature", "properties": { "State": "CA", "FIPS": 6059, "County": "Orange", "squarekm": 2047.561, "squaremi": 790.568, "Latitude": 33.676, "Longitude": -117.777, "1971": 0, "1981": 0, "1991": 0, "2001": 0, "2011": 0, "2019": 0, "Grape": "zinfandel" }, "geometry": { "type": "Point", "coordinates": [ -117.777, 33.676 ] } },
{ "type": "Feature", "properties": { "State": "CA", "FIPS": 6061, "County": "Placer", "squarekm": 3644.136, "squaremi": 1407.009, "Latitude": 39.062, "Longitude": -120.723, "1971": 159, "1981": 24, "1991": 22, "2001": 31, "2011": 52, "2019": 37, "Grape": "zinfandel" }, "geometry": { "type": "Point", "coordinates": [ -120.723, 39.062 ] } },
{ "type": "Feature", "properties": { "State": "CA", "FIPS": 6063, "County": "Plumas", "squarekm": 6612.351, "squaremi": 2553.043, "Latitude": 39.995, "Longitude": -120.83, "1971": 0, "1981": 0, "1991": 0, "2001": 0, "2011": 0, "2019": 0, "Grape": "zinfandel" }, "geometry": { "type": "Point", "coordinates": [ -120.83, 39.995 ] } },
{ "type": "Feature", "properties": { "State": "CA", "FIPS": 6065, "County": "Riverside", "squarekm": 18664.697, "squaremi": 7206.48, "Latitude": 33.73, "Longitude": -116.002, "1971": 193, "1981": 131, "1991": 97, "2001": 53, "2011": 52, "2019": 56, "Grape": "zinfandel" }, "geometry": { "type": "Point", "coordinates": [ -116.002, 33.73 ] } },
{ "type": "Feature", "properties": { "State": "CA", "FIPS": 6067, "County": "Sacramento", "squarekm": 2498.416, "squaremi": 964.644, "Latitude": 38.45, "Longitude": -121.34, "1971": 30, "1981": 432, "1991": 348, "2001": 1077, "2011": 1369, "2019": 1054, "Grape": "zinfandel" }, "geometry": { "type": "Point", "coordinates": [ -121.34, 38.45 ] } },
{ "type": "Feature", "properties": { "State": "CA", "FIPS": 6069, "County": "San Benito", "squarekm": 3596.742, "squaremi": 1388.71, "Latitude": 36.611, "Longitude": -121.085, "1971": 208, "1981": 204, "1991": 23, "2001": 82, "2011": 69, "2019": 60, "Grape": "zinfandel" }, "geometry": { "type": "Point", "coordinates": [ -121.085, 36.611 ] } },
{ "type": "Feature", "properties": { "State": "CA", "FIPS": 6071, "County": "San Bernardino", "squarekm": 51947.23, "squaremi": 20056.938, "Latitude": 34.857, "Longitude": -116.181, "1971": 3884, "1981": 1979, "1991": 620, "2001": 671, "2011": 395, "2019": 263, "Grape": "zinfandel" }, "geometry": { "type": "Point", "coordinates": [ -116.181, 34.857 ] } },
{ "type": "Feature", "properties": { "State": "CA", "FIPS": 6073, "County": "San Diego", "squarekm": 10895.121, "squaremi": 4206.63, "Latitude": 33.024, "Longitude": -116.776, "1971": 138, "1981": 20, "1991": 5, "2001": 1, "2011": 8, "2019": 24, "Grape": "zinfandel" }, "geometry": { "type": "Point", "coordinates": [ -116.776, 33.024 ] } },
{ "type": "Feature", "properties": { "State": "CA", "FIPS": 6075, "County": "San Francisco", "squarekm": 121.4, "squaremi": 46.873, "Latitude": 37.778, "Longitude": -122.416, "1971": 0, "1981": 0, "1991": 0, "2001": 0, "2011": 0, "2019": 0, "Grape": "zinfandel" }, "geometry": { "type": "Point", "coordinates": [ -122.416, 37.778 ] } },
{ "type": "Feature", "properties": { "State": "CA", "FIPS": 6077, "County": "San Joaquin", "squarekm": 3603.506, "squaremi": 1391.322, "Latitude": 37.935, "Longitude": -121.272, "1971": 8083, "1981": 10744, "1991": 12968, "2001": 19930, "2011": 19340, "2019": 16387, "Grape": "zinfandel" }, "geometry": { "type": "Point", "coordinates": [ -121.272, 37.935 ] } },
{ "type": "Feature", "properties": { "State": "CA", "FIPS": 6079, "County": "San Luis Obispo", "squarekm": 8543.248, "squaremi": 3298.567, "Latitude": 35.385, "Longitude": -120.448, "1971": 422, "1981": 1018, "1991": 1320, "2001": 2211, "2011": 2761, "2019": 1859, "Grape": "zinfandel" }, "geometry": { "type": "Point", "coordinates": [ -120.448, 35.385 ] } },
{ "type": "Feature", "properties": { "State": "CA", "FIPS": 6081, "County": "San Mateo", "squarekm": 1161.372, "squaremi": 448.408, "Latitude": 37.415, "Longitude": -122.372, "1971": 3, "1981": 0, "1991": 0, "2001": 2, "2011": 5, "2019": 5, "Grape": "zinfandel" }, "geometry": { "type": "Point", "coordinates": [ -122.372, 37.415 ] } },
{ "type": "Feature", "properties": { "State": "CA", "FIPS": 6083, "County": "Santa Barbara", "squarekm": 7083.838, "squaremi": 2735.085, "Latitude": 34.537, "Longitude": -120.038, "1971": 0, "1981": 64, "1991": 16, "2001": 54, "2011": 45, "2019": 11, "Grape": "zinfandel" }, "geometry": { "type": "Point", "coordinates": [ -120.038, 34.537 ] } },
{ "type": "Feature", "properties": { "State": "CA", "FIPS": 6085, "County": "Santa Clara", "squarekm": 3341.343, "squaremi": 1290.1, "Latitude": 37.221, "Longitude": -121.691, "1971": 238, "1981": 137, "1991": 76, "2001": 95, "2011": 98, "2019": 92, "Grape": "zinfandel" }, "geometry": { "type": "Point", "coordinates": [ -121.691, 37.221 ] } },
{ "type": "Feature", "properties": { "State": "CA", "FIPS": 6087, "County": "Santa Cruz", "squarekm": 1152.986, "squaremi": 445.17, "Latitude": 37.012, "Longitude": -122.007, "1971": 9, "1981": 7, "1991": 4, "2001": 9, "2011": 11, "2019": 9, "Grape": "zinfandel" }, "geometry": { "type": "Point", "coordinates": [ -122.007, 37.012 ] } },
{ "type": "Feature", "properties": { "State": "CA", "FIPS": 6089, "County": "Shasta", "squarekm": 9778.247, "squaremi": 3775.402, "Latitude": 40.761, "Longitude": -122.044, "1971": 0, "1981": 0, "1991": 0, "2001": 0, "2011": 3, "2019": 1, "Grape": "zinfandel" }, "geometry": { "type": "Point", "coordinates": [ -122.044, 40.761 ] } },
{ "type": "Feature", "properties": { "State": "CA", "FIPS": 6091, "County": "Sierra", "squarekm": 2468.814, "squaremi": 953.214, "Latitude": 39.577, "Longitude": -120.522, "1971": 0, "1981": 0, "1991": 0, "2001": 0, "2011": 0, "2019": 0, "Grape": "zinfandel" }, "geometry": { "type": "Point", "coordinates": [ -120.522, 39.577 ] } },
{ "type": "Feature", "properties": { "State": "CA", "FIPS": 6093, "County": "Siskiyou", "squarekm": 16259.652, "squaremi": 6277.887, "Latitude": 41.588, "Longitude": -122.533, "1971": 0, "1981": 0, "1991": 0, "2001": 0, "2011": 2, "2019": 1, "Grape": "zinfandel" }, "geometry": { "type": "Point", "coordinates": [ -122.533, 41.588 ] } },
{ "type": "Feature", "properties": { "State": "CA", "FIPS": 6095, "County": "Solano", "squarekm": 2128.361, "squaremi": 821.765, "Latitude": 38.267, "Longitude": -121.94, "1971": 60, "1981": 26, "1991": 102, "2001": 139, "2011": 120, "2019": 118, "Grape": "zinfandel" }, "geometry": { "type": "Point", "coordinates": [ -121.94, 38.267 ] } },
{ "type": "Feature", "properties": { "State": "CA", "FIPS": 6097, "County": "Sonoma", "squarekm": 4081.43, "squaremi": 1575.849, "Latitude": 38.533, "Longitude": -122.945, "1971": 3820, "1981": 4682, "1991": 4127, "2001": 4871, "2011": 5349, "2019": 4808, "Grape": "zinfandel" }, "geometry": { "type": "Point", "coordinates": [ -122.945, 38.533 ] } },
{ "type": "Feature", "properties": { "State": "CA", "FIPS": 6099, "County": "Stanislaus", "squarekm": 3871.583, "squaremi": 1494.827, "Latitude": 37.562, "Longitude": -121.003, "1971": 117, "1981": 518, "1991": 1056, "2001": 1104, "2011": 1070, "2019": 508, "Grape": "zinfandel" }, "geometry": { "type": "Point", "coordinates": [ -121.003, 37.562 ] } },
{ "type": "Feature", "properties": { "State": "CA", "FIPS": 6101, "County": "Sutter", "squarekm": 1560.236, "squaremi": 602.41, "Latitude": 39.035, "Longitude": -121.703, "1971": 0, "1981": 0, "1991": 0, "2001": 20, "2011": 41, "2019": 5, "Grape": "zinfandel" }, "geometry": { "type": "Point", "coordinates": [ -121.703, 39.035 ] } },
{ "type": "Feature", "properties": { "State": "CA", "FIPS": 6103, "County": "Tehama", "squarekm": 7639.71, "squaremi": 2949.709, "Latitude": 40.126, "Longitude": -122.232, "1971": 5, "1981": 0, "1991": 0, "2001": 2, "2011": 2, "2019": 27, "Grape": "zinfandel" }, "geometry": { "type": "Point", "coordinates": [ -122.232, 40.126 ] } },
{ "type": "Feature", "properties": { "State": "CA", "FIPS": 6105, "County": "Trinity", "squarekm": 8234.23, "squaremi": 3179.254, "Latitude": 40.648, "Longitude": -123.114, "1971": 0, "1981": 0, "1991": 0, "2001": 32, "2011": 13, "2019": 11, "Grape": "zinfandel" }, "geometry": { "type": "Point", "coordinates": [ -123.114, 40.648 ] } },
{ "type": "Feature", "properties": { "State": "CA", "FIPS": 6107, "County": "Tulare", "squarekm": 12494.658, "squaremi": 4824.215, "Latitude": 36.23, "Longitude": -118.781, "1971": 0, "1981": 0, "1991": 866, "2001": 896, "2011": 958, "2019": 365, "Grape": "zinfandel" }, "geometry": { "type": "Point", "coordinates": [ -118.781, 36.23 ] } },
{ "type": "Feature", "properties": { "State": "CA", "FIPS": 6109, "County": "Tuolumne", "squarekm": 5752.063, "squaremi": 2220.884, "Latitude": 38.021, "Longitude": -119.965, "1971": 2, "1981": 0, "1991": 0, "2001": 0, "2011": 1, "2019": 1, "Grape": "zinfandel" }, "geometry": { "type": "Point", "coordinates": [ -119.965, 38.021 ] } },
{ "type": "Feature", "properties": { "State": "CA", "FIPS": 6111, "County": "Ventura", "squarekm": 4773.692, "squaremi": 1843.133, "Latitude": 34.359, "Longitude": -119.133, "1971": 0, "1981": 0, "1991": 0, "2001": 1, "2011": 1, "2019": 2, "Grape": "zinfandel" }, "geometry": { "type": "Point", "coordinates": [ -119.133, 34.359 ] } },
{ "type": "Feature", "properties": { "State": "CA", "FIPS": 6113, "County": "Yolo", "squarekm": 2628.032, "squaremi": 1014.689, "Latitude": 38.679, "Longitude": -121.903, "1971": 15, "1981": 47, "1991": 83, "2001": 367, "2011": 160, "2019": 33, "Grape": "zinfandel" }, "geometry": { "type": "Point", "coordinates": [ -121.903, 38.679 ] } },
{ "type": "Feature", "properties": { "State": "CA", "FIPS": 6115, "County": "Yuba", "squarekm": 1636.454, "squaremi": 631.839, "Latitude": 39.27, "Longitude": -121.344, "1971": 0, "1981": 12, "1991": 0, "2001": 0, "2011": 0, "2019": 0, "Grape": "zinfandel" }, "geometry": { "type": "Point", "coordinates": [ -121.344, 39.27 ] } }
]
}
